id,name,address,latitude,longitude
1,John Smith,123 Main St Boston MA,42.3601,-71.0589
2,Jane Doe,456 Commonwealth Ave Boston MA,42.3500,-71.0892
3,Michael Johnson,789 Beacon St Boston MA,42.3482,-71.1066
4,Emily Williams,101 Newbury St Boston MA,42.3512,-71.0757
5,David Brown,202 Boylston St Boston MA,42.3524,-71.0708
6,Sarah Miller,303 Huntington Ave Boston MA,42.3433,-71.0856
7,Robert Wilson,404 Mass Ave Boston MA,42.3418,-71.0830
8,Jennifer Taylor,505 Columbus Ave Boston MA,42.3398,-71.0817
9,Christopher Anderson,606 Tremont St Boston MA,42.3431,-71.0726
10,Jessica Thomas,707 Washington St Boston MA,42.3522,-71.0620
11,Matthew Jackson,808 Harrison Ave Boston MA,42.3367,-71.0678
12,Amanda White,909 Albany St Boston MA,42.3336,-71.0731
13,Daniel Harris,1010 Shawmut Ave Boston MA,42.3358,-71.0791
14,Elizabeth Martin,1111 Blue Hill Ave Boston MA,42.3092,-71.0866
15,Andrew Thompson,1212 Centre St Boston MA,42.3100,-71.1142
16,Stephanie Garcia,1313 South St Boston MA,42.3090,-71.1056
17,Joshua Martinez,1414 Washington St Boston MA,42.3066,-71.1019
18,Nicole Robinson,1515 Dorchester Ave Boston MA,42.2933,-71.0637
19,Ryan Clark,1616 Savin Hill Ave Boston MA,42.3100,-71.0533
20,Melissa Rodriguez,1717 Morrissey Blvd Boston MA,42.2982,-71.0517
21,Kevin Lewis,1818 Gallivan Blvd Boston MA,42.2833,-71.0600
22,Laura Lee,1919 Adams St Boston MA,42.2800,-71.0450
23,Steven Walker,2020 Neponset Ave Boston MA,42.2867,-71.0433
24,Michelle Hall,2121 River St Boston MA,42.2550,-71.1267
25,Timothy Allen,2222 Washington St Boston MA,42.2533,-71.1200
26,Kimberly Young,2323 Centre St Boston MA,42.2800,-71.1483
27,Brandon King,2424 Spring St Boston MA,42.2767,-71.1333
28,Rebecca Wright,2525 Baker St Boston MA,42.2700,-71.0983
29,Jonathan Scott,2626 Cummins Hwy Boston MA,42.2683,-71.0933
30,Megan Green,2727 American Legion Hwy Boston MA,42.2850,-71.0983
